{
"type": "FeatureCollection",
"crs": { "type": "name", "properties": { "name": "urn:ogc:def:crs:OGC:1.3:CRS84" } },
                                                                                
"features": [
{ "type": "Feature", "properties": { "SVK_ID": 2026, "ID": 190, "NAAM": "KAMPEN" }, "geometry": { "type": "Point", "coordinates": [ 5.921972994510457, 52.559675532344734 ] } },
{ "type": "Feature", "properties": { "SVK_ID": 1307, "ID": 191, "NAAM": "KAPELLE-BIEZELINGE" }, "geometry": { "type": "Point", "coordinates": [ 3.955395053610185, 51.480923730490424 ] } },
{ "type": "Feature", "properties": { "SVK_ID": 1520, "ID": 192, "NAAM": "KERKRADE CENTRUM" }, "geometry": { "type": "Point", "coordinates": [ 6.057234965724555, 50.861712148275437 ] } },
{ "type": "Feature", "properties": { "SVK_ID": 4966, "ID": 193, "NAAM": "KESTEREN" }, "geometry": { "type": "Point", "coordinates": [ 5.583488763429392, 51.93129464567734 ] } },
{ "type": "Feature", "properties": { "SVK_ID": 5164, "ID": 194, "NAAM": "KLARENBEEK" }, "geometry": { "type": "Point", "coordinates": [ 6.084004672569402, 52.178100425096417 ] } },
{ "type": "Feature", "properties": { "SVK_ID": 1522, "ID": 195, "NAAM": "KLIMMEN-RANSDAAL" }, "geometry": { "type": "Point", "coordinates": [ 5.890156649109581, 50.866254111239918 ] } },
{ "type": "Feature", "properties": { "SVK_ID": 212, "ID": 197, "NAAM": "KOOG-ZAANDIJK" }, "geometry": { "type": "Point", "coordinates": [ 4.805128080065495, 52.46923810495997 ] } },
{ "type": "Feature", "properties": { "SVK_ID": 1306, "ID": 198, "NAAM": "KRABBENDIJKE" }, "geometry": { "type": "Point", "coordinates": [ 4.117094713931795, 51.433325279425873 ] } },
{ "type": "Feature", "properties": { "SVK_ID": 5307, "ID": 200, "NAAM": "KROPSWOLDE" }, "geometry": { "type": "Point", "coordinates": [ 6.722743325132412, 53.161735717173372 ] } },
{ "type": "Feature", "properties": { "SVK_ID": 1306, "ID": 201, "NAAM": "KRUININGEN-YERSEKE" }, "geometry": { "type": "Point", "coordinates": [ 4.037614000578955, 51.465056525630629 ] } },
{ "type": "Feature", "properties": { "SVK_ID": 4562, "ID": 202, "NAAM": "LAGE ZWALUWE" }, "geometry": { "type": "Point", "coordinates": [ 4.662941391465964, 51.691262146584762 ] } },
{ "type": "Feature", "properties": { "SVK_ID": 4866, "ID": 203, "NAAM": "LANDGRAAF" }, "geometry": { "type": "Point", "coordinates": [ 6.019815399756211, 50.896440731842773 ] } },
{ "type": "Feature", "properties": { "SVK_ID": 4865, "ID": 203, "NAAM": "LANDGRAAF" }, "geometry": { "type": "Point", "coordinates": [ 6.019815399756211, 50.896440731842773 ] } },
{ "type": "Feature", "properties": { "SVK_ID": 501, "ID": 204, "NAAM": "LEERDAM" }, "geometry": { "type": "Point", "coordinates": [ 5.093129467303733, 51.89462579308428 ] } },
{ "type": "Feature", "properties": { "SVK_ID": 5252, "ID": 205, "NAAM": "LEEUWARDEN" }, "geometry": { "type": "Point", "coordinates": [ 5.792208950600896, 53.196131140105422 ] } },
{ "type": "Feature", "properties": { "SVK_ID": 5254, "ID": 206, "NAAM": "LEEUWARDEN CAMMINGHABUREN" }, "geometry": { "type": "Point", "coordinates": [ 5.84259272167108, 53.202114607813016 ] } },
{ "type": "Feature", "properties": { "SVK_ID": 618, "ID": 207, "NAAM": "LEIDEN" }, "geometry": { "type": "Point", "coordinates": [ 4.482174879691573, 52.166541399494101 ] } },
{ "type": "Feature", "properties": { "SVK_ID": 620, "ID": 208, "NAAM": "LEIDEN LAMMENSCHANS" }, "geometry": { "type": "Point", "coordinates": [ 4.49346597867306, 52.146502432623663 ] } },
{ "type": "Feature", "properties": { "SVK_ID": 1911, "ID": 212, "NAAM": "LICHTENVOORDE" }, "geometry": { "type": "Point", "coordinates": [ 6.596569863133604, 52.011862786833916 ] } },
{ "type": "Feature", "properties": { "SVK_ID": 5134, "ID": 214, "NAAM": "LOCHEM" }, "geometry": { "type": "Point", "coordinates": [ 6.426483435968666, 52.166825607733514 ] } },
{ "type": "Feature", "properties": { "SVK_ID": 5299, "ID": 215, "NAAM": "LOPPERSUM" }, "geometry": { "type": "Point", "coordinates": [ 6.746723103199312, 53.33483529985174 ] } },
{ "type": "Feature", "properties": { "SVK_ID": 4986, "ID": 216, "NAAM": "LUNTEREN" }, "geometry": { "type": "Point", "coordinates": [ 5.624069281280637, 52.085537702669264 ] } },
{ "type": "Feature", "properties": { "SVK_ID": 4979, "ID": 217, "NAAM": "MAARN" }, "geometry": { "type": "Point", "coordinates": [ 5.369572434776634, 52.064347314434436 ] } },
{ "type": "Feature", "properties": { "SVK_ID": 1163, "ID": 218, "NAAM": "MAARSSEN" }, "geometry": { "type": "Point", "coordinates": [ 5.032941337039863, 52.135972713410389 ] } },
{ "type": "Feature", "properties": { "SVK_ID": 1202, "ID": 219, "NAAM": "MAASSLUIS" }, "geometry": { "type": "Point", "coordinates": [ 4.254840521438534, 51.916027917315468 ] } },
{ "type": "Feature", "properties": { "SVK_ID": 1202, "ID": 220, "NAAM": "MAASSLUIS WEST" }, "geometry": { "type": "Point", "coordinates": [ 4.236104657325111, 51.925634957183945 ] } },
{ "type": "Feature", "properties": { "SVK_ID": 4307, "ID": 221, "NAAM": "MAASTRICHT" }, "geometry": { "type": "Point", "coordinates": [ 5.705350405957883, 50.850604616152211 ] } },
{ "type": "Feature", "properties": { "SVK_ID": 4318, "ID": 222, "NAAM": "MAASTRICHT RANDWIJCK" }, "geometry": { "type": "Point", "coordinates": [ 5.717289859818799, 50.83832834210849 ] } },
{ "type": "Feature", "properties": { "SVK_ID": 927, "ID": 223, "NAAM": "MANTGUM" }, "geometry": { "type": "Point", "coordinates": [ 5.713559976357634, 53.130235755537903 ] } },
{ "type": "Feature", "properties": { "SVK_ID": 2022, "ID": 224, "NAAM": "MARIENBERG" }, "geometry": { "type": "Point", "coordinates": [ 6.575530133771063, 52.50953258636126 ] } },
{ "type": "Feature", "properties": { "SVK_ID": 5307, "ID": 225, "NAAM": "MARTENSHOEK" }, "geometry": { "type": "Point", "coordinates": [ 6.741090595552513, 53.160783994166948 ] } },
{ "type": "Feature", "properties": { "SVK_ID": 1562, "ID": 226, "NAAM": "MEERSSEN" }, "geometry": { "type": "Point", "coordinates": [ 5.74991723622712, 50.882563547940912 ] } },
{ "type": "Feature", "properties": { "SVK_ID": 5207, "ID": 228, "NAAM": "MEPPEL" }, "geometry": { "type": "Point", "coordinates": [ 6.197433492026443, 52.690598865388225 ] } },
{ "type": "Feature", "properties": { "SVK_ID": 5761, "ID": 229, "NAAM": "MIDDELBURG" }, "geometry": { "type": "Point", "coordinates": [ 3.617294367417914, 51.494797908612057 ] } },
{ "type": "Feature", "properties": { "SVK_ID": 410, "ID": 230, "NAAM": "NAARDEN-BUSSUM" }, "geometry": { "type": "Point", "coordinates": [ 5.157257423300035, 52.280428007144323 ] } },
{ "type": "Feature", "properties": { "SVK_ID": 4538, "ID": 231, "NAAM": "NIEUW AMSTERDAM" }, "geometry": { "type": "Point", "coordinates": [ 6.848986527187217, 52.718863572635826 ] } },
{ "type": "Feature", "properties": { "SVK_ID": 5465, "ID": 232, "NAAM": "NIEUW VENNEP" }, "geometry": { "type": "Point", "coordinates": [ 4.645560778131871, 52.259001148912532 ] } },
{ "type": "Feature", "properties": { "SVK_ID": 635, "ID": 233, "NAAM": "NIEUWERKERK AAN DE IJSSEL" }, "geometry": { "type": "Point", "coordinates": [ 4.617179644342475, 51.965530108445314 ] } },
{ "type": "Feature", "properties": { "SVK_ID": 5321, "ID": 234, "NAAM": "NIEUWESCHANS" }, "geometry": { "type": "Point", "coordinates": [ 7.199681569125712, 53.184484951275657 ] } },
{ "type": "Feature", "properties": { "SVK_ID": 5046, "ID": 235, "NAAM": "NIJKERK" }, "geometry": { "type": "Point", "coordinates": [ 5.494256476001437, 52.222550662071399 ] } },
{ "type": "Feature", "properties": { "SVK_ID": 5342, "ID": 236, "NAAM": "NIJMEGEN" }, "geometry": { "type": "Point", "coordinates": [ 5.852628241644733, 51.843627713307235 ] } },
{ "type": "Feature", "properties": { "SVK_ID": 5350, "ID": 237, "NAAM": "NIJMEGEN-DUKENBURG" }, "geometry": { "type": "Point", "coordinates": [ 5.795798101391718, 51.824127699458401 ] } },
{ "type": "Feature", "properties": { "SVK_ID": 5056, "ID": 240, "NAAM": "NUNSPEET" }, "geometry": { "type": "Point", "coordinates": [ 5.785558924676137, 52.371061285878014 ] } },
{ "type": "Feature", "properties": { "SVK_ID": 1524, "ID": 291, "NAAM": "SCHIN OP GEUL" }, "geometry": { "type": "Point", "coordinates": [ 5.871639315098033, 50.85608551557803 ] } },
{ "type": "Feature", "properties": { "SVK_ID": 4302, "ID": 291, "NAAM": "SCHIN OP GEUL" }, "geometry": { "type": "Point", "coordinates": [ 5.871639315098033, 50.85608551557803 ] } },
{ "type": "Feature", "properties": { "SVK_ID": 5569, "ID": 291, "NAAM": "SCHIN OP GEUL" }, "geometry": { "type": "Point", "coordinates": [ 5.871639315098033, 50.85608551557803 ] } },
{ "type": "Feature", "properties": { "SVK_ID": 4298, "ID": 949, "NAAM": "SIMPELVELD" }, "geometry": { "type": "Point", "coordinates": [ 5.978102430240118, 50.831501496680588 ] } },
{ "type": "Feature", "properties": { "SVK_ID": 4858, "ID": 950, "NAAM": "EYS" }, "geometry": { "type": "Point", "coordinates": [ 5.924835763263731, 50.823055074404785 ] } },
{ "type": "Feature", "properties": { "SVK_ID": 5464, "ID": 956, "NAAM": "SCHIPHOL" }, "geometry": { "type": "Point", "coordinates": [ 4.763529774637037, 52.310002166104148 ] } },
{ "type": "Feature", "properties": { "SVK_ID": 4430, "ID": 958, "NAAM": "MEDEMBLIK" }, "geometry": { "type": "Point", "coordinates": [ 5.106993419875051, 52.773821768553105 ] } },
{ "type": "Feature", "properties": { "SVK_ID": 4430, "ID": 957, "NAAM": "OPPERDOES" }, "geometry": { "type": "Point", "coordinates": [ 5.074059685161308, 52.760396924340178 ] } },
{ "type": "Feature", "properties": { "SVK_ID": 4430, "ID": 959, "NAAM": "TWISK" }, "geometry": { "type": "Point", "coordinates": [ 5.071722499820032, 52.750096620524133 ] } },
{ "type": "Feature", "properties": { "SVK_ID": 4430, "ID": 960, "NAAM": "MIDWOUD - OOSTWOUD" }, "geometry": { "type": "Point", "coordinates": [ 5.070364687557571, 52.726734446166219 ] } },
{ "type": "Feature", "properties": { "SVK_ID": 5069, "ID": 965, "NAAM": "EERBEEK" }, "geometry": { "type": "Point", "coordinates": [ 6.066341741740743, 52.102773173803868 ] } },
{ "type": "Feature", "properties": { "SVK_ID": 2032, "ID": 970, "NAAM": "WORKUM" }, "geometry": { "type": "Point", "coordinates": [ 5.456446244802842, 52.972040417641317 ] } },
{ "type": "Feature", "properties": { "SVK_ID": 2032, "ID": 972, "NAAM": "KOUDUM-MOLKWERUM" }, "geometry": { "type": "Point", "coordinates": [ 5.410577894930416, 52.902815263680139 ] } },
{ "type": "Feature", "properties": { "SVK_ID": 2032, "ID": 973, "NAAM": "STAVOREN" }, "geometry": { "type": "Point", "coordinates": [ 5.359663926133062, 52.886501204962705 ] } },
{ "type": "Feature", "properties": { "SVK_ID": 4625, "ID": 975, "NAAM": "GLANERBRUG" }, "geometry": { "type": "Point", "coordinates": [ 6.972867578201983, 52.218841578687133 ] } },
{ "type": "Feature", "properties": { "SVK_ID": 4035, "ID": 954, "NAAM": "ROTTERDAM CENTRAAL" }, "geometry": { "type": "Point", "coordinates": [ 4.469704568309765, 51.924864430504861 ] } },
{ "type": "Feature", "properties": { "SVK_ID": 604, "ID": 978, "NAAM": "HILLEGOM" }, "geometry": { "type": "Point", "coordinates": [ 4.57098990439388, 52.307388002296115 ] } },
{ "type": "Feature", "properties": { "SVK_ID": 4434, "ID": 283, "NAAM": "SANTPOORT NOORD" }, "geometry": { "type": "Point", "coordinates": [ 4.632742687395805, 52.434373752932792 ] } },
{ "type": "Feature", "properties": { "SVK_ID": 1124, "ID": 21, "NAAM": "AMSTERDAM CENTRAAL" }, "geometry": { "type": "Point", "coordinates": [ 4.899408089189561, 52.379275016796768 ] } },
{ "type": "Feature", "properties": { "SVK_ID": 4726, "ID": 979, "NAAM": "S' GRAVENPOLDER" }, "geometry": { "type": "Point", "coordinates": [ 3.892374226006177, 51.462244114138322 ] } },
{ "type": "Feature", "properties": { "SVK_ID": 4726, "ID": 980, "NAAM": "NISSE" }, "geometry": { "type": "Point", "coordinates": [ 3.880834956129747, 51.454811588438723 ] } },
{ "type": "Feature", "properties": { "SVK_ID": 4726, "ID": 983, "NAAM": "HOEDEKENSKERKE" }, "geometry": { "type": "Point", "coordinates": [ 3.914295579062781, 51.421177500590559 ] } },
{ "type": "Feature", "properties": { "SVK_ID": 4726, "ID": 982, "NAAM": "KWADENDAMME" }, "geometry": { "type": "Point", "coordinates": [ 3.88861518031011, 51.441385717644209 ] } },
{ "type": "Feature", "properties": { "SVK_ID": 4726, "ID": 985, "NAAM": "OUDELANDE" }, "geometry": { "type": "Point", "coordinates": [ 3.856604804254415, 51.41299470029265 ] } },
{ "type": "Feature", "properties": { "SVK_ID": 4006, "ID": 330, "NAAM": "VENLO" }, "geometry": { "type": "Point", "coordinates": [ 6.171422886171428, 51.364959142531859 ] } },
{ "type": "Feature", "properties": { "SVK_ID": 4933, "ID": 250, "NAAM": "OSS WEST" }, "geometry": { "type": "Point", "coordinates": [ 5.506925585130864, 51.758416664479171 ] } },
{ "type": "Feature", "properties": { "SVK_ID": 5017, "ID": 322, "NAAM": "UTRECHT OVERVECHT" }, "geometry": { "type": "Point", "coordinates": [ 5.123640344724036, 52.109690532574497 ] } },
{ "type": "Feature", "properties": { "SVK_ID": 5144, "ID": 172, "NAAM": "HENGELO OOST" }, "geometry": { "type": "Point", "coordinates": [ 6.818801421115053, 52.268901962322644 ] } },
{ "type": "Feature", "properties": { "SVK_ID": 5251, "ID": 151, "NAAM": "HARDEGARIJP" }, "geometry": { "type": "Point", "coordinates": [ 5.934647754483949, 53.219005678368305 ] } },
{ "type": "Feature", "properties": { "SVK_ID": 905, "ID": 149, "NAAM": "GROUW-JIRNSUM" }, "geometry": { "type": "Point", "coordinates": [ 5.8228054254327, 53.088831416266586 ] } },
{ "type": "Feature", "properties": { "SVK_ID": 1704, "ID": 977, "NAAM": "NIJMEGEN LENT" }, "geometry": { "type": "Point", "coordinates": [ 5.859400144763997, 51.864164364393794 ] } },
{ "type": "Feature", "properties": { "SVK_ID": 1111, "ID": 988, "NAAM": "HAARLEM SPAARNWOUDE" }, "geometry": { "type": "Point", "coordinates": [ 4.672270356835055, 52.382810328986615 ] } },
{ "type": "Feature", "properties": { "SVK_ID": 1104, "ID": 989, "NAAM": "OVERVEEN" }, "geometry": { "type": "Point", "coordinates": [ 4.607597921162268, 52.390952915648242 ] } },
{ "type": "Feature", "properties": { "SVK_ID": 4625, "ID": 974, "NAAM": "DE ESCHMARKE" }, "geometry": { "type": "Point", "coordinates": [ 6.952665354833422, 52.221280333782005 ] } },
{ "type": "Feature", "properties": { "SVK_ID": 714, "ID": 990, "NAAM": "VOORBURG T LOO" }, "geometry": { "type": "Point", "coordinates": [ 4.365295890945813, 52.082485308883534 ] } },
{ "type": "Feature", "properties": { "SVK_ID": 422, "ID": 991, "NAAM": "HILVERSUM SPORTPARK" }, "geometry": { "type": "Point", "coordinates": [ 5.187152829666921, 52.216013735473389 ] } },
{ "type": "Feature", "properties": { "SVK_ID": 610, "ID": 992, "NAAM": "VOORHOUT" }, "geometry": { "type": "Point", "coordinates": [ 4.484428350114828, 52.224037095134875 ] } },
{ "type": "Feature", "properties": { "SVK_ID": 1231, "ID": 993, "NAAM": "VLAARDINGEN OOST" }, "geometry": { "type": "Point", "coordinates": [ 4.361510906464461, 51.910127267910035 ] } },
{ "type": "Feature", "properties": { "SVK_ID": 714, "ID": 340, "NAAM": "LEIDSCHENDAM-VOORBURG" }, "geometry": { "type": "Point", "coordinates": [ 4.383083448274882, 52.076950575000581 ] } },
{ "type": "Feature", "properties": { "SVK_ID": 412, "ID": 10, "NAAM": "ALMERE PARKWIJK" }, "geometry": { "type": "Point", "coordinates": [ 5.244974670034174, 52.37676084005404 ] } },
{ "type": "Feature", "properties": { "SVK_ID": 5161, "ID": 9, "NAAM": "ALMELO DE RIET" }, "geometry": { "type": "Point", "coordinates": [ 6.666726636702642, 52.342045832062205 ] } },
{ "type": "Feature", "properties": { "SVK_ID": 1129, "ID": 18, "NAAM": "AMSTERDAM AMSTEL" }, "geometry": { "type": "Point", "coordinates": [ 4.917691013542266, 52.346157294089259 ] } },
{ "type": "Feature", "properties": { "SVK_ID": 5270, "ID": 160, "NAAM": "HEERENVEEN" }, "geometry": { "type": "Point", "coordinates": [ 5.914427917785956, 52.961514159542872 ] } },
{ "type": "Feature", "properties": { "SVK_ID": 2032, "ID": 971, "NAAM": "HINDELOOPEN" }, "geometry": { "type": "Point", "coordinates": [ 5.42304216662638, 52.9465019950607 ] } },
{ "type": "Feature", "properties": { "SVK_ID": 212, "ID": 196, "NAAM": "KOOG BLOEMWIJK" }, "geometry": { "type": "Point", "coordinates": [ 4.805631513119471, 52.45893180560828 ] } },
{ "type": "Feature", "properties": { "SVK_ID": 4122, "ID": 266, "NAAM": "ROODESCHOOL" }, "geometry": { "type": "Point", "coordinates": [ 6.759408158425105, 53.418667329176586 ] } },
{ "type": "Feature", "properties": { "SVK_ID": 5269, "ID": 161, "NAAM": "HEERENVEEN IJSSTADION" }, "geometry": { "type": "Point", "coordinates": [ 5.943846719256578, 52.935580532601811 ] } },
{ "type": "Feature", "properties": { "SVK_ID": 1912, "ID": 994, "NAAM": "WINTERSWIJK - WEST" }, "geometry": { "type": "Point", "coordinates": [ 6.703224762740248, 51.974903170490215 ] } },
{ "type": "Feature", "properties": { "SVK_ID": 1169, "ID": 997, "NAAM": "UTRECHT - TERWIJDE" }, "geometry": { "type": "Point", "coordinates": [ 5.042433611453045, 52.100443285530233 ] } },
{ "type": "Feature", "properties": { "SVK_ID": 1407, "ID": 999, "NAAM": "TILBURG - REESHOF" }, "geometry": { "type": "Point", "coordinates": [ 4.99222294360284, 51.574070835084832 ] } },
{ "type": "Feature", "properties": { "SVK_ID": 412, "ID": 11, "NAAM": "ALMERE - OOSTERVAARDERS" }, "geometry": { "type": "Point", "coordinates": [ 5.300214190120853, 52.403129748296372 ] } },
{ "type": "Feature", "properties": { "SVK_ID": 1708, "ID": 995, "NAAM": "ARNHEM - ZUID" }, "geometry": { "type": "Point", "coordinates": [ 5.851993386400736, 51.955004708229986 ] } },
{ "type": "Feature", "properties": { "SVK_ID": 4897, "ID": 1000, "NAAM": "HELMOND BRANDEVOORT" }, "geometry": { "type": "Point", "coordinates": [ 5.608970294342038, 51.462324555736338 ] } },
{ "type": "Feature", "properties": { "SVK_ID": 1513, "ID": 1001, "NAAM": "DE KISSEL" }, "geometry": { "type": "Point", "coordinates": [ 5.993976208609626, 50.890123975061904 ] } },
{ "type": "Feature", "properties": { "SVK_ID": 5673, "ID": 1002, "NAAM": "EYGELSHOVEN - MARKT" }, "geometry": { "type": "Point", "coordinates": [ 6.057734667505163, 50.896133486912369 ] } },
{ "type": "Feature", "properties": { "SVK_ID": 4475, "ID": 1003, "NAAM": "GRONINGEN - EUROPARK" }, "geometry": { "type": "Point", "coordinates": [ 6.587655640207756, 53.204133191966882 ] } },
{ "type": "Feature", "properties": { "SVK_ID": 4973, "ID": 1004, "NAAM": "UTRECHT - ZUILEN" }, "geometry": { "type": "Point", "coordinates": [ 5.089104768260055, 52.103362557568893 ] } },
{ "type": "Feature", "properties": { "SVK_ID": 4960, "ID": 1005, "NAAM": "TIEL - PASSEWAAIJ" }, "geometry": { "type": "Point", "coordinates": [ 5.39228418967389, 51.874229382175209 ] } },
{ "type": "Feature", "properties": { "SVK_ID": 1933, "ID": 1007, "NAAM": "TWELLO" }, "geometry": { "type": "Point", "coordinates": [ 6.099741167880562, 52.238088687669013 ] } },
{ "type": "Feature", "properties": { "SVK_ID": 4511, "ID": 1008, "NAAM": "APELDOORN DE MATEN" }, "geometry": { "type": "Point", "coordinates": [ 6.000284329006795, 52.20552213212833 ] } },
{ "type": "Feature", "properties": { "SVK_ID": 5164, "ID": 1009, "NAAM": "VOORST - EMPE" }, "geometry": { "type": "Point", "coordinates": [ 6.143534906334767, 52.157773134534352 ] } },
{ "type": "Feature", "properties": { "SVK_ID": 5099, "ID": 1010, "NAAM": "GAANDEREN" }, "geometry": { "type": "Point", "coordinates": [ 6.347619946685671, 51.931277577185149 ] } },
{ "type": "Feature", "properties": { "SVK_ID": 4093, "ID": 1019, "NAAM": "BULLEWIJK" }, "geometry": { "type": "Point", "coordinates": [ 4.951661214638508, 52.306996827078912 ] } },
{ "type": "Feature", "properties": { "SVK_ID": 1132, "ID": 1020, "NAAM": "STRANDVLIET" }, "geometry": { "type": "Point", "coordinates": [ 4.940582840016927, 52.318872335687317 ] } },
{ "type": "Feature", "properties": { "SVK_ID": 1129, "ID": 1022, "NAAM": "SPAKLERWEG" }, "geometry": { "type": "Point", "coordinates": [ 4.920322575725361, 52.340652373696912 ] } },
{ "type": "Feature", "properties": { "SVK_ID": 213, "ID": 1023, "NAAM": "PURMEREND WEIDEVENNE" }, "geometry": { "type": "Point", "coordinates": [ 4.936352833808541, 52.49696858115972 ] } },
{ "type": "Feature", "properties": { "SVK_ID": 656, "ID": 1026, "NAAM": "SASSENHEIM" }, "geometry": { "type": "Point", "coordinates": [ 4.516730944514471, 52.215263363410948 ] } },
{ "type": "Feature", "properties": { "SVK_ID": 831, "ID": 39, "NAAM": "BAFLO" }, "geometry": { "type": "Point", "coordinates": [ 6.518810923824957, 53.360866852417836 ] } },
{ "type": "Feature", "properties": { "SVK_ID": 1526, "ID": 188, "NAAM": "HOUTHEM-ST.GERLACH" }, "geometry": { "type": "Point", "coordinates": [ 5.797214227889166, 50.873380469166364 ] } },
{ "type": "Feature", "properties": { "SVK_ID": 5278, "ID": 317, "NAAM": "UITHUIZEN" }, "geometry": { "type": "Point", "coordinates": [ 6.674824289384154, 53.409649424785385 ] } },
{ "type": "Feature", "properties": { "SVK_ID": 1526, "ID": 323, "NAAM": "VALKENBURG" }, "geometry": { "type": "Point", "coordinates": [ 5.83215841025385, 50.869639731668528 ] } },
{ "type": "Feature", "properties": { "SVK_ID": 5288, "ID": 357, "NAAM": "WINSUM" }, "geometry": { "type": "Point", "coordinates": [ 6.520283288753618, 53.330190887219722 ] } },
{ "type": "Feature", "properties": { "SVK_ID": 5643, "ID": 1029, "NAAM": "DRONTEN" }, "geometry": { "type": "Point", "coordinates": [ 5.72089256065155, 52.534408148982969 ] } },
{ "type": "Feature", "properties": { "SVK_ID": 5643, "ID": 1030, "NAAM": "KAMPEN ZUID" }, "geometry": { "type": "Point", "coordinates": [ 5.913436013983407, 52.532915964995645 ] } },
{ "type": "Feature", "properties": { "SVK_ID": 1151, "ID": 2, "NAAM": "ABCOUDE" }, "geometry": { "type": "Point", "coordinates": [ 4.977220827314139, 52.278719385778246 ] } },
{ "type": "Feature", "properties": { "SVK_ID": 1123, "ID": 19, "NAAM": "AMSTERDAM ZUID" }, "geometry": { "type": "Point", "coordinates": [ 4.872407816558576, 52.338851593532901 ] } },
{ "type": "Feature", "properties": { "SVK_ID": 4093, "ID": 20, "NAAM": "AMSTERDAM BIJLMER ARENA" }, "geometry": { "type": "Point", "coordinates": [ 4.947110817137192, 52.312364246493367 ] } },
{ "type": "Feature", "properties": { "SVK_ID": 1127, "ID": 24, "NAAM": "AMSTERDAM MUIDERPOORT" }, "geometry": { "type": "Point", "coordinates": [ 4.930373081634469, 52.360232263800881 ] } },
{ "type": "Feature", "properties": { "SVK_ID": 4096, "ID": 27, "NAAM": "AMSTERDAM SLOTERDIJK" }, "geometry": { "type": "Point", "coordinates": [ 4.837999188277744, 52.389125065708207 ] } },
{ "type": "Feature", "properties": { "SVK_ID": 507, "ID": 40, "NAAM": "BARENDRECHT" }, "geometry": { "type": "Point", "coordinates": [ 4.552916082006665, 51.854704637901811 ] } },
{ "type": "Feature", "properties": { "SVK_ID": 12, "ID": 49, "NAAM": "BEST" }, "geometry": { "type": "Point", "coordinates": [ 5.388872977017915, 51.509992326440802 ] } },
{ "type": "Feature", "properties": { "SVK_ID": 4904, "ID": 60, "NAAM": "BOXTEL" }, "geometry": { "type": "Point", "coordinates": [ 5.318891086730259, 51.584770692742659 ] } },
{ "type": "Feature", "properties": { "SVK_ID": 734, "ID": 86, "NAAM": "DELFT ZUID" }, "geometry": { "type": "Point", "coordinates": [ 4.365029668659984, 51.990467642939691 ] } },
{ "type": "Feature", "properties": { "SVK_ID": 4042, "ID": 91, "NAAM": "DEN HAAG CENTRAAL" }, "geometry": { "type": "Point", "coordinates": [ 4.32427797341795, 52.081036834258235 ] } },
{ "type": "Feature", "properties": { "SVK_ID": 4043, "ID": 92, "NAAM": "DEN HAAG HS" }, "geometry": { "type": "Point", "coordinates": [ 4.322194514077924, 52.069460200813388 ] } },
{ "type": "Feature", "properties": { "SVK_ID": 5102, "ID": 105, "NAAM": "DOETINCHEM DE HUET" }, "geometry": { "type": "Point", "coordinates": [ 6.260151362239663, 51.959146819305765 ] } },
{ "type": "Feature", "properties": { "SVK_ID": 4128, "ID": 122, "NAAM": "EINDHOVEN" }, "geometry": { "type": "Point", "coordinates": [ 5.481069284014828, 51.443193661630012 ] } },
{ "type": "Feature", "properties": { "SVK_ID": 20, "ID": 122, "NAAM": "EINDHOVEN" }, "geometry": { "type": "Point", "coordinates": [ 5.481069284014828, 51.443193661630012 ] } },
{ "type": "Feature", "properties": { "SVK_ID": 517, "ID": 154, "NAAM": "HARDINXVELD-GIESSENDAM" }, "geometry": { "type": "Point", "coordinates": [ 4.835566508658824, 51.830453506196328 ] } },
{ "type": "Feature", "properties": { "SVK_ID": 4899, "ID": 167, "NAAM": "HELMOND" }, "geometry": { "type": "Point", "coordinates": [ 5.661685404166218, 51.475400219655995 ] } },
{ "type": "Feature", "properties": { "SVK_ID": 4072, "ID": 171, "NAAM": "HENGELO" }, "geometry": { "type": "Point", "coordinates": [ 6.794566469027082, 52.261852511941555 ] } },
{ "type": "Feature", "properties": { "SVK_ID": 1203, "ID": 175, "NAAM": "HOEK VAN HOLLAND HAVEN" }, "geometry": { "type": "Point", "coordinates": [ 4.129431031164656, 51.975094998741369 ] } },
{ "type": "Feature", "properties": { "SVK_ID": 1203, "ID": 176, "NAAM": "HOEK VAN HOLLAND STRAND" }, "geometry": { "type": "Point", "coordinates": [ 4.119800120604924, 51.981621806783238 ] } },
{ "type": "Feature", "properties": { "SVK_ID": 5619, "ID": 210, "NAAM": "LELYSTAD CENTRUM" }, "geometry": { "type": "Point", "coordinates": [ 5.472695411839512, 52.508095402208639 ] } },
{ "type": "Feature", "properties": { "SVK_ID": 4944, "ID": 238, "NAAM": "NIJMEGEN HEYENDAAL" }, "geometry": { "type": "Point", "coordinates": [ 5.867621654652617, 51.82698877328388 ] } },
{ "type": "Feature", "properties": { "SVK_ID": 20, "ID": 253, "NAAM": "EINDHOVEN STADION" }, "geometry": { "type": "Point", "coordinates": [ 5.468513704872172, 51.44275395045441 ] } },
{ "type": "Feature", "properties": { "SVK_ID": 742, "ID": 264, "NAAM": "RIJSWIJK" }, "geometry": { "type": "Point", "coordinates": [ 4.319687109407382, 52.039391662980066 ] } },
{ "type": "Feature", "properties": { "SVK_ID": 5472, "ID": 276, "NAAM": "ROTTERDAM LOMBARDIJEN" }, "geometry": { "type": "Point", "coordinates": [ 4.530843353125788, 51.880393141598148 ] } },
{ "type": "Feature", "properties": { "SVK_ID": 4038, "ID": 290, "NAAM": "SCHIEDAM - CENTRUM" }, "geometry": { "type": "Point", "coordinates": [ 4.409620822666861, 51.921869712164366 ] } },
{ "type": "Feature", "properties": { "SVK_ID": 1555, "ID": 309, "NAAM": "SWALMEN" }, "geometry": { "type": "Point", "coordinates": [ 6.032503728437225, 51.235782103167217 ] } },
{ "type": "Feature", "properties": { "SVK_ID": 4873, "ID": 311, "NAAM": "TEGELEN" }, "geometry": { "type": "Point", "coordinates": [ 6.142200120943426, 51.338733837617291 ] } },
{ "type": "Feature", "properties": { "SVK_ID": 1231, "ID": 334, "NAAM": "VLAARDINGEN WEST" }, "geometry": { "type": "Point", "coordinates": [ 4.314355478303725, 51.903983103360055 ] } },
{ "type": "Feature", "properties": { "SVK_ID": 1170, "ID": 335, "NAAM": "VLEUTEN" }, "geometry": { "type": "Point", "coordinates": [ 5.00793454246736, 52.103144794682791 ] } },
{ "type": "Feature", "properties": { "SVK_ID": 733, "ID": 339, "NAAM": "VOORBURG" }, "geometry": { "type": "Point", "coordinates": [ 4.359241935594506, 52.066699047500421 ] } },
{ "type": "Feature", "properties": { "SVK_ID": 4925, "ID": 346, "NAAM": "VUGHT" }, "geometry": { "type": "Point", "coordinates": [ 5.291956612645507, 51.65557728540837 ] } },
{ "type": "Feature", "properties": { "SVK_ID": 212, "ID": 362, "NAAM": "WORMERMEER" }, "geometry": { "type": "Point", "coordinates": [ 4.792600031933887, 52.489254185541625 ] } },
{ "type": "Feature", "properties": { "SVK_ID": 4106, "ID": 363, "NAAM": "ZAANDAM" }, "geometry": { "type": "Point", "coordinates": [ 4.81366378990293, 52.438587017257873 ] } },
{ "type": "Feature", "properties": { "SVK_ID": 205, "ID": 364, "NAAM": "ZAANDAM KOGERVELD" }, "geometry": { "type": "Point", "coordinates": [ 4.820814115809803, 52.456740432466098 ] } },
{ "type": "Feature", "properties": { "SVK_ID": 1625, "ID": 365, "NAAM": "ZALTBOMMEL" }, "geometry": { "type": "Point", "coordinates": [ 5.263270197015577, 51.808442455764634 ] } },
{ "type": "Feature", "properties": { "SVK_ID": 4102, "ID": 366, "NAAM": "ZANDVOORT" }, "geometry": { "type": "Point", "coordinates": [ 4.533284303776489, 52.375232253817671 ] } },
{ "type": "Feature", "properties": { "SVK_ID": 1776, "ID": 367, "NAAM": "ZETTEN-ANDELST" }, "geometry": { "type": "Point", "coordinates": [ 5.722373300258891, 51.919700154062404 ] } },
{ "type": "Feature", "properties": { "SVK_ID": 1922, "ID": 368, "NAAM": "ZEVENAAR" }, "geometry": { "type": "Point", "coordinates": [ 6.072151649134735, 51.923098299030151 ] } },
{ "type": "Feature", "properties": { "SVK_ID": 1420, "ID": 369, "NAAM": "ZEVENBERGEN" }, "geometry": { "type": "Point", "coordinates": [ 4.609046158466638, 51.640309156367088 ] } },
{ "type": "Feature", "properties": { "SVK_ID": 724, "ID": 371, "NAAM": "ZOETERMEER-OOST" }, "geometry": { "type": "Point", "coordinates": [ 4.493162089017966, 52.046368359109181 ] } },
{ "type": "Feature", "properties": { "SVK_ID": 5310, "ID": 372, "NAAM": "ZUIDBROEK" }, "geometry": { "type": "Point", "coordinates": [ 6.867150485980989, 53.159284907984961 ] } },
{ "type": "Feature", "properties": { "SVK_ID": 5243, "ID": 373, "NAAM": "ZUIDHORN" }, "geometry": { "type": "Point", "coordinates": [ 6.407454426833124, 53.247911205263193 ] } },
{ "type": "Feature", "properties": { "SVK_ID": 5113, "ID": 374, "NAAM": "ZUTPHEN" }, "geometry": { "type": "Point", "coordinates": [ 6.194070598407746, 52.145068037906682 ] } },
{ "type": "Feature", "properties": { "SVK_ID": 5247, "ID": 375, "NAAM": "ZWAAGWESTEINDE" }, "geometry": { "type": "Point", "coordinates": [ 6.036172937290342, 53.248290942746145 ] } },
{ "type": "Feature", "properties": { "SVK_ID": 505, "ID": 376, "NAAM": "ZWIJNDRECHT" }, "geometry": { "type": "Point", "coordinates": [ 4.642073536284352, 51.814897479968721 ] } },
{ "type": "Feature", "properties": { "SVK_ID": 4085, "ID": 377, "NAAM": "ZWOLLE" }, "geometry": { "type": "Point", "coordinates": [ 6.091497972688045, 52.5049282394451 ] } },
{ "type": "Feature", "properties": { "SVK_ID": 902, "ID": 361, "NAAM": "WOLVEGA" }, "geometry": { "type": "Point", "coordinates": [ 6.003994968439895, 52.880826076395834 ] } },
{ "type": "Feature", "properties": { "SVK_ID": 1030, "ID": 242, "NAAM": "OBDAM" }, "geometry": { "type": "Point", "coordinates": [ 4.907524710396454, 52.678157024467197 ] } },
{ "type": "Feature", "properties": { "SVK_ID": 1428, "ID": 243, "NAAM": "OISTERWIJK" }, "geometry": { "type": "Point", "coordinates": [ 5.194100762354137, 51.582207242950211 ] } },
{ "type": "Feature", "properties": { "SVK_ID": 5147, "ID": 244, "NAAM": "OLDENZAAL" }, "geometry": { "type": "Point", "coordinates": [ 6.932932358429817, 52.306155160367894 ] } },
{ "type": "Feature", "properties": { "SVK_ID": 2015, "ID": 245, "NAAM": "OLST" }, "geometry": { "type": "Point", "coordinates": [ 6.113370206216162, 52.334666441093951 ] } },
{ "type": "Feature", "properties": { "SVK_ID": 5182, "ID": 246, "NAAM": "OMMEN" }, "geometry": { "type": "Point", "coordinates": [ 6.416083264396036, 52.509548953516386 ] } },
{ "type": "Feature", "properties": { "SVK_ID": 5336, "ID": 247, "NAAM": "OOSTERBEEK" }, "geometry": { "type": "Point", "coordinates": [ 5.839726890443239, 51.995078291285481 ] } },
{ "type": "Feature", "properties": { "SVK_ID": 1779, "ID": 248, "NAAM": "OPHEUSDEN" }, "geometry": { "type": "Point", "coordinates": [ 5.637474531733094, 51.926023764912806 ] } },
{ "type": "Feature", "properties": { "SVK_ID": 4935, "ID": 249, "NAAM": "OSS" }, "geometry": { "type": "Point", "coordinates": [ 5.531890664329303, 51.765417756802904 ] } },
{ "type": "Feature", "properties": { "SVK_ID": 1432, "ID": 251, "NAAM": "OUDENBOSCH" }, "geometry": { "type": "Point", "coordinates": [ 4.532380935786395, 51.587242673841196 ] } },
{ "type": "Feature", "properties": { "SVK_ID": 213, "ID": 255, "NAAM": "PURMEREND" }, "geometry": { "type": "Point", "coordinates": [ 4.953770346359546, 52.503218009402048 ] } },
{ "type": "Feature", "properties": { "SVK_ID": 213, "ID": 256, "NAAM": "PURMEREND OVERWHERE" }, "geometry": { "type": "Point", "coordinates": [ 4.968595490767465, 52.511593576506144 ] } },
{ "type": "Feature", "properties": { "SVK_ID": 5048, "ID": 257, "NAAM": "PUTTEN" }, "geometry": { "type": "Point", "coordinates": [ 5.57480829384598, 52.264773636887661 ] } },
{ "type": "Feature", "properties": { "SVK_ID": 343, "ID": 258, "NAAM": "RAALTE" }, "geometry": { "type": "Point", "coordinates": [ 6.277773110374396, 52.391695444096015 ] } },
{ "type": "Feature", "properties": { "SVK_ID": 1626, "ID": 259, "NAAM": "RAVENSTEIN" }, "geometry": { "type": "Point", "coordinates": [ 5.635988550222358, 51.794221672843371 ] } },
{ "type": "Feature", "properties": { "SVK_ID": 1533, "ID": 260, "NAAM": "REUVER" }, "geometry": { "type": "Point", "coordinates": [ 6.07910095460796, 51.28275668529114 ] } },
{ "type": "Feature", "properties": { "SVK_ID": 1785, "ID": 261, "NAAM": "RHEDEN" }, "geometry": { "type": "Point", "coordinates": [ 6.031065813957058, 52.01008701731034 ] } },
{ "type": "Feature", "properties": { "SVK_ID": 1760, "ID": 262, "NAAM": "RHENEN" }, "geometry": { "type": "Point", "coordinates": [ 5.578501596122617, 51.958573197881918 ] } },
{ "type": "Feature", "properties": { "SVK_ID": 307, "ID": 263, "NAAM": "RIJSSEN" }, "geometry": { "type": "Point", "coordinates": [ 6.520178019108788, 52.312188746316743 ] } },
{ "type": "Feature", "properties": { "SVK_ID": 1306, "ID": 265, "NAAM": "RILLAND-BATH" }, "geometry": { "type": "Point", "coordinates": [ 4.160715356068448, 51.422636026046277 ] } },
{ "type": "Feature", "properties": { "SVK_ID": 4869, "ID": 267, "NAAM": "ROERMOND" }, "geometry": { "type": "Point", "coordinates": [ 5.994580317878435, 51.193455704042321 ] } },
{ "type": "Feature", "properties": { "SVK_ID": 4381, "ID": 268, "NAAM": "ROOSENDAAL" }, "geometry": { "type": "Point", "coordinates": [ 4.4590914372023, 51.540632795407468 ] } },
{ "type": "Feature", "properties": { "SVK_ID": 4929, "ID": 269, "NAAM": "ROSMALEN" }, "geometry": { "type": "Point", "coordinates": [ 5.368130454340651, 51.714720992548791 ] } },
{ "type": "Feature", "properties": { "SVK_ID": 637, "ID": 271, "NAAM": "ROTTERDAM ALEXANDER" }, "geometry": { "type": "Point", "coordinates": [ 4.55458548343154, 51.951872457568903 ] } },
{ "type": "Feature", "properties": { "SVK_ID": 4651, "ID": 273, "NAAM": "ROTTERDAM BLAAK" }, "geometry": { "type": "Point", "coordinates": [ 4.489105525623231, 51.920047000011692 ] } },
{ "type": "Feature", "properties": { "SVK_ID": 637, "ID": 277, "NAAM": "ROTTERDAM NOORD" }, "geometry": { "type": "Point", "coordinates": [ 4.482709726311696, 51.942415824742667 ] } },
{ "type": "Feature", "properties": { "SVK_ID": 4651, "ID": 279, "NAAM": "ROTTERDAM ZUID" }, "geometry": { "type": "Point", "coordinates": [ 4.510552377370803, 51.904137092925176 ] } },
{ "type": "Feature", "properties": { "SVK_ID": 5128, "ID": 280, "NAAM": "RUURLO" }, "geometry": { "type": "Point", "coordinates": [ 6.450592637754475, 52.080562394929665 ] } },
{ "type": "Feature", "properties": { "SVK_ID": 4365, "ID": 281, "NAAM": "S HERTOGENBOSCH" }, "geometry": { "type": "Point", "coordinates": [ 5.293616803289285, 51.690425344142277 ] } },
{ "type": "Feature", "properties": { "SVK_ID": 4929, "ID": 282, "NAAM": "S HERTOGENBOSCH OOST" }, "geometry": { "type": "Point", "coordinates": [ 5.317579612087294, 51.700554060638574 ] } },
{ "type": "Feature", "properties": { "SVK_ID": 1102, "ID": 284, "NAAM": "SANTPOORT ZUID" }, "geometry": { "type": "Point", "coordinates": [ 4.631349172813105, 52.42038883873056 ] } },
{ "type": "Feature", "properties": { "SVK_ID": 5307, "ID": 285, "NAAM": "SAPPEMEER-OOST" }, "geometry": { "type": "Point", "coordinates": [ 6.796070164647724, 53.158910217239558 ] } },
{ "type": "Feature", "properties": { "SVK_ID": 829, "ID": 286, "NAAM": "SAUWERD" }, "geometry": { "type": "Point", "coordinates": [ 6.540377227502051, 53.291198625559169 ] } },
{ "type": "Feature", "properties": { "SVK_ID": 1003, "ID": 287, "NAAM": "SCHAGEN" }, "geometry": { "type": "Point", "coordinates": [ 4.805331768473216, 52.784511968880061 ] } },
{ "type": "Feature", "properties": { "SVK_ID": 806, "ID": 288, "NAAM": "SCHEEMDA" }, "geometry": { "type": "Point", "coordinates": [ 6.978742063906177, 53.165000021981072 ] } },
{ "type": "Feature", "properties": { "SVK_ID": 1201, "ID": 289, "NAAM": "SCHIEDAM NIEUWLAND" }, "geometry": { "type": "Point", "coordinates": [ 4.382253946424211, 51.922229204047397 ] } },
{ "type": "Feature", "properties": { "SVK_ID": 1511, "ID": 293, "NAAM": "SCHINNEN" }, "geometry": { "type": "Point", "coordinates": [ 5.87468715912592, 50.939004769859174 ] } },
{ "type": "Feature", "properties": { "SVK_ID": 4559, "ID": 295, "NAAM": "SITTARD" }, "geometry": { "type": "Point", "coordinates": [ 5.858558566538957, 51.002191762906513 ] } },
{ "type": "Feature", "properties": { "SVK_ID": 518, "ID": 296, "NAAM": "SLIEDRECHT" }, "geometry": { "type": "Point", "coordinates": [ 4.779086078423667, 51.829448928316097 ] } },
{ "type": "Feature", "properties": { "SVK_ID": 932, "ID": 297, "NAAM": "SNEEK" }, "geometry": { "type": "Point", "coordinates": [ 5.651724382033056, 53.032638871691283 ] } },
{ "type": "Feature", "properties": { "SVK_ID": 932, "ID": 298, "NAAM": "SNEEK NOORD" }, "geometry": { "type": "Point", "coordinates": [ 5.662742869450387, 53.040081438824892 ] } },
{ "type": "Feature", "properties": { "SVK_ID": 1796, "ID": 299, "NAAM": "SOEST" }, "geometry": { "type": "Point", "coordinates": [ 5.309988514218078, 52.173320703970418 ] } },
{ "type": "Feature", "properties": { "SVK_ID": 1796, "ID": 300, "NAAM": "SOEST ZUID" }, "geometry": { "type": "Point", "coordinates": [ 5.303497668594944, 52.165631624233448 ] } },
{ "type": "Feature", "properties": { "SVK_ID": 1796, "ID": 301, "NAAM": "SOESTDIJK" }, "geometry": { "type": "Point", "coordinates": [ 5.300276981361092, 52.18331749109943 ] } },
{ "type": "Feature", "properties": { "SVK_ID": 1510, "ID": 303, "NAAM": "SPAUBEEK" }, "geometry": { "type": "Point", "coordinates": [ 5.849097406427113, 50.943685073360108 ] } },
{ "type": "Feature", "properties": { "SVK_ID": 5024, "ID": 304, "NAAM": "SPOORWEGMUSEUM" }, "geometry": { "type": "Point", "coordinates": [ 5.131288146813923, 52.087161351469305 ] } },
{ "type": "Feature", "properties": { "SVK_ID": 5295, "ID": 306, "NAAM": "STEDUM" }, "geometry": { "type": "Point", "coordinates": [ 6.688675103684838, 53.326608298792664 ] } },
{ "type": "Feature", "properties": { "SVK_ID": 5274, "ID": 307, "NAAM": "STEENWIJK" }, "geometry": { "type": "Point", "coordinates": [ 6.115551344961557, 52.791370767191871 ] } },
{ "type": "Feature", "properties": { "SVK_ID": 4868, "ID": 308, "NAAM": "SUSTEREN" }, "geometry": { "type": "Point", "coordinates": [ 5.86314555041463, 51.061517882689849 ] } },
{ "type": "Feature", "properties": { "SVK_ID": 5058, "ID": 310, "NAAM": "T HARDE" }, "geometry": { "type": "Point", "coordinates": [ 5.893807448497503, 52.409519059538439 ] } },
{ "type": "Feature", "properties": { "SVK_ID": 5098, "ID": 312, "NAAM": "TERBORG" }, "geometry": { "type": "Point", "coordinates": [ 6.365050986342249, 51.922131448533861 ] } },
{ "type": "Feature", "properties": { "SVK_ID": 4962, "ID": 313, "NAAM": "TIEL" }, "geometry": { "type": "Point", "coordinates": [ 5.422297664086626, 51.889334520717135 ] } },
{ "type": "Feature", "properties": { "SVK_ID": 1408, "ID": 314, "NAAM": "TILBURG" }, "geometry": { "type": "Point", "coordinates": [ 5.085589565958677, 51.560476978944003 ] } },
{ "type": "Feature", "properties": { "SVK_ID": 1407, "ID": 315, "NAAM": "TILBURG-WEST" }, "geometry": { "type": "Point", "coordinates": [ 5.052057261143057, 51.564888999940479 ] } },
{ "type": "Feature", "properties": { "SVK_ID": 1011, "ID": 316, "NAAM": "UITGEEST" }, "geometry": { "type": "Point", "coordinates": [ 4.701481672777022, 52.522187279727262 ] } },
{ "type": "Feature", "properties": { "SVK_ID": 5276, "ID": 318, "NAAM": "UITHUIZERMEEDEN" }, "geometry": { "type": "Point", "coordinates": [ 6.720614899784142, 53.413837429544074 ] } },
{ "type": "Feature", "properties": { "SVK_ID": 5281, "ID": 319, "NAAM": "USQUERT" }, "geometry": { "type": "Point", "coordinates": [ 6.608244942143696, 53.40099370362276 ] } },
{ "type": "Feature", "properties": { "SVK_ID": 1767, "ID": 321, "NAAM": "UTRECHT LUNETTEN" }, "geometry": { "type": "Point", "coordinates": [ 5.144274963229956, 52.065410707729377 ] } },
{ "type": "Feature", "properties": { "SVK_ID": 5097, "ID": 324, "NAAM": "VARSSEVELD" }, "geometry": { "type": "Point", "coordinates": [ 6.457356475905744, 51.937003692829563 ] } },
{ "type": "Feature", "properties": { "SVK_ID": 4982, "ID": 325, "NAAM": "VEENENDAAL CENTRUM" }, "geometry": { "type": "Point", "coordinates": [ 5.548796874933263, 52.020069982288078 ] } },
{ "type": "Feature", "properties": { "SVK_ID": 4984, "ID": 326, "NAAM": "VEENENDAAL DE KLOMP" }, "geometry": { "type": "Point", "coordinates": [ 5.573685405557374, 52.045865020222891 ] } },
{ "type": "Feature", "properties": { "SVK_ID": 4982, "ID": 327, "NAAM": "VEENENDAAL WEST" }, "geometry": { "type": "Point", "coordinates": [ 5.53128255200831, 52.028200039854354 ] } },
{ "type": "Feature", "properties": { "SVK_ID": 5247, "ID": 328, "NAAM": "VEENWOUDEN" }, "geometry": { "type": "Point", "coordinates": [ 5.990237211691121, 53.235204710286197 ] } },
{ "type": "Feature", "properties": { "SVK_ID": 1785, "ID": 329, "NAAM": "VELP" }, "geometry": { "type": "Point", "coordinates": [ 5.980305530781943, 51.994750064202115 ] } },
{ "type": "Feature", "properties": { "SVK_ID": 4890, "ID": 331, "NAAM": "VENRAY" }, "geometry": { "type": "Point", "coordinates": [ 6.014891965764793, 51.526432922196129 ] } },
{ "type": "Feature", "properties": { "SVK_ID": 1619, "ID": 332, "NAAM": "VIERLINGSBEEK" }, "geometry": { "type": "Point", "coordinates": [ 5.996835836746214, 51.591940197088732 ] } },
{ "type": "Feature", "properties": { "SVK_ID": 1231, "ID": 333, "NAAM": "VLAARDINGEN CENTRUM" }, "geometry": { "type": "Point", "coordinates": [ 4.343331612042605, 51.903031259517448 ] } },
{ "type": "Feature", "properties": { "SVK_ID": 1317, "ID": 336, "NAAM": "VLISSINGEN" }, "geometry": { "type": "Point", "coordinates": [ 3.595379327837837, 51.44563601931192 ] } },
{ "type": "Feature", "properties": { "SVK_ID": 1317, "ID": 337, "NAAM": "VLISSINGEN SOUBURG" }, "geometry": { "type": "Point", "coordinates": [ 3.595122294131919, 51.464602112000016 ] } },
{ "type": "Feature", "properties": { "SVK_ID": 1522, "ID": 338, "NAAM": "VOERENDAAL" }, "geometry": { "type": "Point", "coordinates": [ 5.930159322235744, 50.887107320592484 ] } },
{ "type": "Feature", "properties": { "SVK_ID": 609, "ID": 341, "NAAM": "VOORSCHOTEN" }, "geometry": { "type": "Point", "coordinates": [ 4.432640104504285, 52.125415257972044 ] } },
{ "type": "Feature", "properties": { "SVK_ID": 5124, "ID": 343, "NAAM": "VORDEN" }, "geometry": { "type": "Point", "coordinates": [ 6.318209817678999, 52.107147604363625 ] } },
{ "type": "Feature", "properties": { "SVK_ID": 5172, "ID": 344, "NAAM": "VRIEZENVEEN" }, "geometry": { "type": "Point", "coordinates": [ 6.60042065213874, 52.402086229332753 ] } },
{ "type": "Feature", "properties": { "SVK_ID": 5180, "ID": 345, "NAAM": "VROOMSHOOP" }, "geometry": { "type": "Point", "coordinates": [ 6.569591238962995, 52.45773007201759 ] } },
{ "type": "Feature", "properties": { "SVK_ID": 642, "ID": 347, "NAAM": "WADDINXVEEN" }, "geometry": { "type": "Point", "coordinates": [ 4.649885975494477, 52.043768517788656 ] } },
{ "type": "Feature", "properties": { "SVK_ID": 642, "ID": 348, "NAAM": "WADDINXVEEN-NOORD" }, "geometry": { "type": "Point", "coordinates": [ 4.648525103964313, 52.054689891623845 ] } },
{ "type": "Feature", "properties": { "SVK_ID": 5286, "ID": 349, "NAAM": "WARFFUM" }, "geometry": { "type": "Point", "coordinates": [ 6.567360065858144, 53.390474749669579 ] } },
{ "type": "Feature", "properties": { "SVK_ID": 5060, "ID": 352, "NAAM": "WEZEP" }, "geometry": { "type": "Point", "coordinates": [ 6.002493068521414, 52.454176220186312 ] } },
{ "type": "Feature", "properties": { "SVK_ID": 4080, "ID": 353, "NAAM": "WIERDEN" }, "geometry": { "type": "Point", "coordinates": [ 6.591351001970183, 52.361443321495628 ] } },
{ "type": "Feature", "properties": { "SVK_ID": 4939, "ID": 354, "NAAM": "WIJCHEN" }, "geometry": { "type": "Point", "coordinates": [ 5.731691665581291, 51.811731701100094 ] } },
{ "type": "Feature", "properties": { "SVK_ID": 2016, "ID": 355, "NAAM": "WIJHE" }, "geometry": { "type": "Point", "coordinates": [ 6.140489703664644, 52.390293830041415 ] } },
{ "type": "Feature", "properties": { "SVK_ID": 5317, "ID": 356, "NAAM": "WINSCHOTEN" }, "geometry": { "type": "Point", "coordinates": [ 7.035022090902737, 53.139200710362928 ] } },
{ "type": "Feature", "properties": { "SVK_ID": 5089, "ID": 358, "NAAM": "WINTERSWIJK" }, "geometry": { "type": "Point", "coordinates": [ 6.715424575815311, 51.967612739125762 ] } },
{ "type": "Feature", "properties": { "SVK_ID": 1161, "ID": 359, "NAAM": "WOERDEN" }, "geometry": { "type": "Point", "coordinates": [ 4.894038198967222, 52.085293027863891 ] } },
{ "type": "Feature", "properties": { "SVK_ID": 5336, "ID": 360, "NAAM": "WOLFHEZE" }, "geometry": { "type": "Point", "coordinates": [ 5.793721748101623, 52.0053940255981 ] } },
{ "type": "Feature", "properties": { "SVK_ID": 1559, "ID": 241, "NAAM": "NUTH" }, "geometry": { "type": "Point", "coordinates": [ 5.893437616258494, 50.919490204739581 ] } },
{ "type": "Feature", "properties": { "SVK_ID": 905, "ID": 5, "NAAM": "AKKRUM" }, "geometry": { "type": "Point", "coordinates": [ 5.843719800396662, 53.046545794295525 ] } },
{ "type": "Feature", "properties": { "SVK_ID": 1006, "ID": 6, "NAAM": "ALKMAAR" }, "geometry": { "type": "Point", "coordinates": [ 4.739760224602716, 52.637791595729645 ] } },
{ "type": "Feature", "properties": { "SVK_ID": 1035, "ID": 7, "NAAM": "ALKMAAR NOORD" }, "geometry": { "type": "Point", "coordinates": [ 4.76431476335558, 52.643926252661359 ] } },
{ "type": "Feature", "properties": { "SVK_ID": 5163, "ID": 8, "NAAM": "ALMELO" }, "geometry": { "type": "Point", "coordinates": [ 6.653929338274056, 52.357976484055754 ] } },
{ "type": "Feature", "properties": { "SVK_ID": 412, "ID": 12, "NAAM": "ALMERE BUITEN" }, "geometry": { "type": "Point", "coordinates": [ 5.277959731753942, 52.394150781944511 ] } },
{ "type": "Feature", "properties": { "SVK_ID": 412, "ID": 13, "NAAM": "ALMERE CS" }, "geometry": { "type": "Point", "coordinates": [ 5.21835593576867, 52.375126113763272 ] } },
{ "type": "Feature", "properties": { "SVK_ID": 412, "ID": 14, "NAAM": "ALMERE MUZIEKWIJK" }, "geometry": { "type": "Point", "coordinates": [ 5.190751333596801, 52.367749686393722 ] } },
{ "type": "Feature", "properties": { "SVK_ID": 4105, "ID": 15, "NAAM": "ALPHEN AAN DEN RIJN" }, "geometry": { "type": "Point", "coordinates": [ 4.657877521293335, 52.124084228539893 ] } },
{ "type": "Feature", "properties": { "SVK_ID": 4062, "ID": 16, "NAAM": "AMERSFOORT" }, "geometry": { "type": "Point", "coordinates": [ 5.371816958723808, 52.153715273209919 ] } },
{ "type": "Feature", "properties": { "SVK_ID": 5046, "ID": 17, "NAAM": "AMERSFOORT SCHOTHORST" }, "geometry": { "type": "Point", "coordinates": [ 5.403927729603494, 52.174800691666434 ] } },
{ "type": "Feature", "properties": { "SVK_ID": 1916, "ID": 1, "NAAM": "AALTEN" }, "geometry": { "type": "Point", "coordinates": [ 6.577731002839157, 51.921247709569144 ] } },
{ "type": "Feature", "properties": { "SVK_ID": 5354, "ID": 23, "NAAM": "AMSTERDAM LELYLAAN" }, "geometry": { "type": "Point", "coordinates": [ 4.833982755406085, 52.357785323465023 ] } },
{ "type": "Feature", "properties": { "SVK_ID": 1123, "ID": 26, "NAAM": "AMSTERDAM R.A.I." }, "geometry": { "type": "Point", "coordinates": [ 4.890277129509688, 52.336958738610768 ] } },
{ "type": "Feature", "properties": { "SVK_ID": 1032, "ID": 29, "NAAM": "ANNA PAUWLONA" }, "geometry": { "type": "Point", "coordinates": [ 4.811236741164936, 52.867497778634977 ] } },
{ "type": "Feature", "properties": { "SVK_ID": 4490, "ID": 30, "NAAM": "APELDOORN" }, "geometry": { "type": "Point", "coordinates": [ 5.970504115498317, 52.20925768965116 ] } },
{ "type": "Feature", "properties": { "SVK_ID": 5303, "ID": 31, "NAAM": "APPINGEDAM" }, "geometry": { "type": "Point", "coordinates": [ 6.86155374906139, 53.325933181490797 ] } },
{ "type": "Feature", "properties": { "SVK_ID": 502, "ID": 32, "NAAM": "ARKEL" }, "geometry": { "type": "Point", "coordinates": [ 4.99212861237328, 51.871750864331133 ] } },
{ "type": "Feature", "properties": { "SVK_ID": 5761, "ID": 33, "NAAM": "ARNEMUIDEN" }, "geometry": { "type": "Point", "coordinates": [ 3.66909351899675, 51.501487385153887 ] } },
{ "type": "Feature", "properties": { "SVK_ID": 5074, "ID": 34, "NAAM": "ARNHEM" }, "geometry": { "type": "Point", "coordinates": [ 5.899542710427552, 51.984963779977903 ] } },
{ "type": "Feature", "properties": { "SVK_ID": 5079, "ID": 35, "NAAM": "ARNHEM PRESIKHAAF" }, "geometry": { "type": "Point", "coordinates": [ 5.943864787097239, 51.988070056383528 ] } },
{ "type": "Feature", "properties": { "SVK_ID": 5078, "ID": 36, "NAAM": "ARNHEM VELPERPOORT" }, "geometry": { "type": "Point", "coordinates": [ 5.919242252683668, 51.985253820662543 ] } },
{ "type": "Feature", "properties": { "SVK_ID": 5220, "ID": 37, "NAAM": "ASSEN" }, "geometry": { "type": "Point", "coordinates": [ 6.571103082601889, 52.991888112814486 ] } },
{ "type": "Feature", "properties": { "SVK_ID": 1731, "ID": 38, "NAAM": "BAARN" }, "geometry": { "type": "Point", "coordinates": [ 5.280653374441011, 52.208305689232652 ] } },
{ "type": "Feature", "properties": { "SVK_ID": 4990, "ID": 41, "NAAM": "BARNEVELD-CENTRUM" }, "geometry": { "type": "Point", "coordinates": [ 5.590409324334449, 52.139816316665446 ] } },
{ "type": "Feature", "properties": { "SVK_ID": 4991, "ID": 42, "NAAM": "BARNEVELD-NOORD" }, "geometry": { "type": "Point", "coordinates": [ 5.598485127643968, 52.160941798797836 ] } },
{ "type": "Feature", "properties": { "SVK_ID": 5291, "ID": 43, "NAAM": "BEDUM" }, "geometry": { "type": "Point", "coordinates": [ 6.591696075161102, 53.306708438845938 ] } },
{ "type": "Feature", "properties": { "SVK_ID": 4844, "ID": 44, "NAAM": "BEEK-ELSLOO" }, "geometry": { "type": "Point", "coordinates": [ 5.786626299001393, 50.947504067695895 ] } },
{ "type": "Feature", "properties": { "SVK_ID": 1782, "ID": 45, "NAAM": "BEESD" }, "geometry": { "type": "Point", "coordinates": [ 5.194441131461979, 51.89939263764964 ] } },
{ "type": "Feature", "properties": { "SVK_ID": 118, "ID": 46, "NAAM": "BEILEN" }, "geometry": { "type": "Point", "coordinates": [ 6.520906930561174, 52.853891943188835 ] } },
{ "type": "Feature", "properties": { "SVK_ID": 4665, "ID": 47, "NAAM": "BERGEN OP ZOOM" }, "geometry": { "type": "Point", "coordinates": [ 4.295926671204612, 51.49364700522522 ] } },
{ "type": "Feature", "properties": { "SVK_ID": 4446, "ID": 50, "NAAM": "BEVERWIJK" }, "geometry": { "type": "Point", "coordinates": [ 4.657083741276855, 52.478709871038546 ] } },
{ "type": "Feature", "properties": { "SVK_ID": 5032, "ID": 51, "NAAM": "BILTHOVEN" }, "geometry": { "type": "Point", "coordinates": [ 5.203072728416754, 52.129754683649537 ] } },
{ "type": "Feature", "properties": { "SVK_ID": 4007, "ID": 52, "NAAM": "BLERICK" }, "geometry": { "type": "Point", "coordinates": [ 6.155070152501747, 51.372449519642451 ] } },
{ "type": "Feature", "properties": { "SVK_ID": 1188, "ID": 53, "NAAM": "BLOEMENDAAL" }, "geometry": { "type": "Point", "coordinates": [ 4.627328231865307, 52.403699670760709 ] } },
{ "type": "Feature", "properties": { "SVK_ID": 647, "ID": 54, "NAAM": "BODEGRAVEN" }, "geometry": { "type": "Point", "coordinates": [ 4.745110494918509, 52.081717507664756 ] } },
{ "type": "Feature", "properties": { "SVK_ID": 5161, "ID": 55, "NAAM": "BORNE" }, "geometry": { "type": "Point", "coordinates": [ 6.747990288992824, 52.299098374701735 ] } },
{ "type": "Feature", "properties": { "SVK_ID": 643, "ID": 56, "NAAM": "BOSKOOP" }, "geometry": { "type": "Point", "coordinates": [ 4.646705065701888, 52.077455028978633 ] } },
{ "type": "Feature", "properties": { "SVK_ID": 1022, "ID": 57, "NAAM": "BOVENKARSPEL-FLORA" }, "geometry": { "type": "Point", "coordinates": [ 5.254593007681828, 52.696187862018313 ] } },
{ "type": "Feature", "properties": { "SVK_ID": 1022, "ID": 58, "NAAM": "BOVENKARSPEL-GROOTSBROEK" }, "geometry": { "type": "Point", "coordinates": [ 5.237896209784105, 52.695107649007873 ] } },
{ "type": "Feature", "properties": { "SVK_ID": 1618, "ID": 59, "NAAM": "BOXMEER" }, "geometry": { "type": "Point", "coordinates": [ 5.939346462606248, 51.64443243977891 ] } },
{ "type": "Feature", "properties": { "SVK_ID": 4017, "ID": 61, "NAAM": "WEERT" }, "geometry": { "type": "Point", "coordinates": [ 5.70382995111065, 51.248697619788821 ] } },
{ "type": "Feature", "properties": { "SVK_ID": 4332, "ID": 62, "NAAM": "BREDA" }, "geometry": { "type": "Point", "coordinates": [ 4.780248670808942, 51.595371591512681 ] } },
{ "type": "Feature", "properties": { "SVK_ID": 1421, "ID": 63, "NAAM": "BREDA-PRINSENBEEK" }, "geometry": { "type": "Point", "coordinates": [ 4.720810391827749, 51.606598693137229 ] } },
{ "type": "Feature", "properties": { "SVK_ID": 1157, "ID": 64, "NAAM": "BREUKELEN" }, "geometry": { "type": "Point", "coordinates": [ 4.99064148516806, 52.168833150431574 ] } },
{ "type": "Feature", "properties": { "SVK_ID": 5110, "ID": 65, "NAAM": "BRUMMEN" }, "geometry": { "type": "Point", "coordinates": [ 6.146782164357099, 52.090337635205614 ] } },
{ "type": "Feature", "properties": { "SVK_ID": 5247, "ID": 66, "NAAM": "BUITENPOST" }, "geometry": { "type": "Point", "coordinates": [ 6.145499955550068, 53.256393303048291 ] } },
{ "type": "Feature", "properties": { "SVK_ID": 1502, "ID": 67, "NAAM": "BUNDE" }, "geometry": { "type": "Point", "coordinates": [ 5.736653800887497, 50.89679778632869 ] } },
{ "type": "Feature", "properties": { "SVK_ID": 1769, "ID": 68, "NAAM": "BUNNIK" }, "geometry": { "type": "Point", "coordinates": [ 5.194494932420053, 52.063166600521669 ] } },
{ "type": "Feature", "properties": { "SVK_ID": 410, "ID": 69, "NAAM": "BUSSUM-ZUID" }, "geometry": { "type": "Point", "coordinates": [ 5.162662006082611, 52.266435449531379 ] } },
{ "type": "Feature", "properties": { "SVK_ID": 636, "ID": 71, "NAAM": "CAPELLE SCHOLLEVAAR" }, "geometry": { "type": "Point", "coordinates": [ 4.584540237524427, 51.954175061952704 ] } },
{ "type": "Feature", "properties": { "SVK_ID": 1008, "ID": 72, "NAAM": "CASTRICUM" }, "geometry": { "type": "Point", "coordinates": [ 4.658847804918583, 52.545849203275125 ] } },
{ "type": "Feature", "properties": { "SVK_ID": 1520, "ID": 74, "NAAM": "CHEVREMONT" }, "geometry": { "type": "Point", "coordinates": [ 6.059516713067307, 50.876045404695155 ] } },
{ "type": "Feature", "properties": { "SVK_ID": 5189, "ID": 75, "NAAM": "COEVORDEN" }, "geometry": { "type": "Point", "coordinates": [ 6.735781903518806, 52.663467967393693 ] } },
{ "type": "Feature", "properties": { "SVK_ID": 4409, "ID": 76, "NAAM": "CUIJK" }, "geometry": { "type": "Point", "coordinates": [ 5.874150042540758, 51.726959011524087 ] } },
{ "type": "Feature", "properties": { "SVK_ID": 1780, "ID": 77, "NAAM": "CULEMBORG" }, "geometry": { "type": "Point", "coordinates": [ 5.227314388912061, 51.946288746141015 ] } },
{ "type": "Feature", "properties": { "SVK_ID": 5176, "ID": 78, "NAAM": "DAARLERVEEN" }, "geometry": { "type": "Point", "coordinates": [ 6.575916723115026, 52.44125421204145 ] } },
{ "type": "Feature", "properties": { "SVK_ID": 5189, "ID": 79, "NAAM": "DALEN" }, "geometry": { "type": "Point", "coordinates": [ 6.758159149256342, 52.694131031026899 ] } },
{ "type": "Feature", "properties": { "SVK_ID": 2018, "ID": 80, "NAAM": "DALFSEN" }, "geometry": { "type": "Point", "coordinates": [ 6.258497673623973, 52.498462136434355 ] } },
{ "type": "Feature", "properties": { "SVK_ID": 608, "ID": 82, "NAAM": "DE VINK" }, "geometry": { "type": "Point", "coordinates": [ 4.456297859336042, 52.147149763328763 ] } },
{ "type": "Feature", "properties": { "SVK_ID": 5259, "ID": 83, "NAAM": "DEINUM" }, "geometry": { "type": "Point", "coordinates": [ 5.727554885388662, 53.188667279922079 ] } },
{ "type": "Feature", "properties": { "SVK_ID": 5141, "ID": 84, "NAAM": "DELDEN" }, "geometry": { "type": "Point", "coordinates": [ 6.716035081159221, 52.260118042710282 ] } },
{ "type": "Feature", "properties": { "SVK_ID": 734, "ID": 85, "NAAM": "DELFT" }, "geometry": { "type": "Point", "coordinates": [ 4.356460942377594, 52.005997415966597 ] } },
{ "type": "Feature", "properties": { "SVK_ID": 5306, "ID": 88, "NAAM": "DELFZIJL" }, "geometry": { "type": "Point", "coordinates": [ 6.923103090941726, 53.333717764237569 ] } },
{ "type": "Feature", "properties": { "SVK_ID": 5305, "ID": 89, "NAAM": "DELFZIJL WEST" }, "geometry": { "type": "Point", "coordinates": [ 6.907234257795354, 53.332014297376979 ] } },
{ "type": "Feature", "properties": { "SVK_ID": 5034, "ID": 90, "NAAM": "DEN DOLDER" }, "geometry": { "type": "Point", "coordinates": [ 5.242966316232347, 52.140460921041814 ] } },
{ "type": "Feature", "properties": { "SVK_ID": 4045, "ID": 93, "NAAM": "DEN HAAG LAAN VAN NOI" }, "geometry": { "type": "Point", "coordinates": [ 4.342487633017504, 52.078709959848823 ] } },
{ "type": "Feature", "properties": { "SVK_ID": 710, "ID": 94, "NAAM": "DEN HAAG MARIAHOEVE" }, "geometry": { "type": "Point", "coordinates": [ 4.369740627657333, 52.090831435572106 ] } },
{ "type": "Feature", "properties": { "SVK_ID": 1001, "ID": 95, "NAAM": "DEN HELDER" }, "geometry": { "type": "Point", "coordinates": [ 4.760969284823492, 52.955448304912785 ] } },
{ "type": "Feature", "properties": { "SVK_ID": 4110, "ID": 96, "NAAM": "DEN HELDER ZUID" }, "geometry": { "type": "Point", "coordinates": [ 4.76392310515434, 52.933069298108869 ] } },
{ "type": "Feature", "properties": { "SVK_ID": 7, "ID": 97, "NAAM": "DEURNE" }, "geometry": { "type": "Point", "coordinates": [ 5.789840748753265, 51.455794488593554 ] } },
{ "type": "Feature", "properties": { "SVK_ID": 5938, "ID": 98, "NAAM": "DEVENTER" }, "geometry": { "type": "Point", "coordinates": [ 6.160559465125847, 52.257384577248068 ] } },
{ "type": "Feature", "properties": { "SVK_ID": 305, "ID": 99, "NAAM": "DEVENTER COLMSCHATE" }, "geometry": { "type": "Point", "coordinates": [ 6.214591829651008, 52.250322268846752 ] } },
{ "type": "Feature", "properties": { "SVK_ID": 5106, "ID": 100, "NAAM": "DIDAM" }, "geometry": { "type": "Point", "coordinates": [ 6.133617154704832, 51.933645029505243 ] } },
{ "type": "Feature", "properties": { "SVK_ID": 1146, "ID": 101, "NAAM": "DIEMEN" }, "geometry": { "type": "Point", "coordinates": [ 4.967626400942365, 52.34521239109241 ] } },
{ "type": "Feature", "properties": { "SVK_ID": 1141, "ID": 102, "NAAM": "DIEMEN ZUID" }, "geometry": { "type": "Point", "coordinates": [ 4.955766625797561, 52.330331001874121 ] } },
{ "type": "Feature", "properties": { "SVK_ID": 4492, "ID": 103, "NAAM": "DIEREN" }, "geometry": { "type": "Point", "coordinates": [ 6.103215123240945, 52.045057468316116 ] } },
{ "type": "Feature", "properties": { "SVK_ID": 4618, "ID": 107, "NAAM": "DORDRECHT" }, "geometry": { "type": "Point", "coordinates": [ 4.667835137921772, 51.807318968767305 ] } },
{ "type": "Feature", "properties": { "SVK_ID": 4026, "ID": 108, "NAAM": "DORDRECHT STADSPOLDER" }, "geometry": { "type": "Point", "coordinates": [ 4.717057327124919, 51.801857664979295 ] } },
{ "type": "Feature", "properties": { "SVK_ID": 520, "ID": 109, "NAAM": "DORDRECHT ZUID" }, "geometry": { "type": "Point", "coordinates": [ 4.670960549715628, 51.789477561599121 ] } },
{ "type": "Feature", "properties": { "SVK_ID": 4976, "ID": 111, "NAAM": "DRIEBERGEN-ZEIST" }, "geometry": { "type": "Point", "coordinates": [ 5.259060433100929, 52.065276762391399 ] } },
{ "type": "Feature", "properties": { "SVK_ID": 1013, "ID": 112, "NAAM": "DRIEHUIS" }, "geometry": { "type": "Point", "coordinates": [ 4.638020701524118, 52.442262554071014 ] } },
{ "type": "Feature", "properties": { "SVK_ID": 5259, "ID": 114, "NAAM": "DRONRIJP" }, "geometry": { "type": "Point", "coordinates": [ 5.635486148457803, 53.177795985326263 ] } },
{ "type": "Feature", "properties": { "SVK_ID": 1802, "ID": 115, "NAAM": "DUIVEN" }, "geometry": { "type": "Point", "coordinates": [ 6.01519798369677, 51.943146188425025 ] } },
{ "type": "Feature", "properties": { "SVK_ID": 1132, "ID": 116, "NAAM": "DUIVENDRECHT" }, "geometry": { "type": "Point", "coordinates": [ 4.936870069515212, 52.323205199551488 ] } },
{ "type": "Feature", "properties": { "SVK_ID": 1560, "ID": 118, "NAAM": "ECHT" }, "geometry": { "type": "Point", "coordinates": [ 5.879100730076612, 51.100930679978902 ] } },
{ "type": "Feature", "properties": { "SVK_ID": 4986, "ID": 119, "NAAM": "EDE-CENTRUM" }, "geometry": { "type": "Point", "coordinates": [ 5.667952111436451, 52.043161196431932 ] } },
{ "type": "Feature", "properties": { "SVK_ID": 5336, "ID": 120, "NAAM": "EDE-WAGENINGEN" }, "geometry": { "type": "Point", "coordinates": [ 5.673012887654727, 52.027635468255802 ] } },
{ "type": "Feature", "properties": { "SVK_ID": 4827, "ID": 121, "NAAM": "EIJSDEN" }, "geometry": { "type": "Point", "coordinates": [ 5.709956026852091, 50.771831790208793 ] } },
{ "type": "Feature", "properties": { "SVK_ID": 13, "ID": 123, "NAAM": "EINDHOVEN BEUKENLAAN" }, "geometry": { "type": "Point", "coordinates": [ 5.456599289298399, 51.450752190454402 ] } },
{ "type": "Feature", "properties": { "SVK_ID": 1706, "ID": 124, "NAAM": "ELST" }, "geometry": { "type": "Point", "coordinates": [ 5.855178135919273, 51.915803628329016 ] } },
{ "type": "Feature", "properties": { "SVK_ID": 5192, "ID": 125, "NAAM": "EMMEN" }, "geometry": { "type": "Point", "coordinates": [ 6.899658624011368, 52.790261396709468 ] } },
{ "type": "Feature", "properties": { "SVK_ID": 4538, "ID": 126, "NAAM": "EMMEN BARGERES" }, "geometry": { "type": "Point", "coordinates": [ 6.889496579668304, 52.757673321797427 ] } },
{ "type": "Feature", "properties": { "SVK_ID": 1023, "ID": 127, "NAAM": "ENKHUIZEN" }, "geometry": { "type": "Point", "coordinates": [ 5.286522119165057, 52.699409469707099 ] } },
{ "type": "Feature", "properties": { "SVK_ID": 346, "ID": 128, "NAAM": "ENSCHEDE" }, "geometry": { "type": "Point", "coordinates": [ 6.889070385301578, 52.222411797593729 ] } },
{ "type": "Feature", "properties": { "SVK_ID": 346, "ID": 129, "NAAM": "ENSCHEDE DRIENERLO" }, "geometry": { "type": "Point", "coordinates": [ 6.83887123080499, 52.237377309989725 ] } },
{ "type": "Feature", "properties": { "SVK_ID": 5052, "ID": 130, "NAAM": "ERMELO" }, "geometry": { "type": "Point", "coordinates": [ 5.614945589046355, 52.301957269024783 ] } },
{ "type": "Feature", "properties": { "SVK_ID": 4372, "ID": 131, "NAAM": "ETTEN-LEUR" }, "geometry": { "type": "Point", "coordinates": [ 4.635168122333563, 51.574878974080512 ] } },
{ "type": "Feature", "properties": { "SVK_ID": 1520, "ID": 132, "NAAM": "EYGELSHOVEN" }, "geometry": { "type": "Point", "coordinates": [ 6.045890460831165, 50.889939954911341 ] } },
{ "type": "Feature", "properties": { "SVK_ID": 5265, "ID": 133, "NAAM": "FRANEKER" }, "geometry": { "type": "Point", "coordinates": [ 5.550251021247502, 53.182399152210856 ] } },
{ "type": "Feature", "properties": { "SVK_ID": 5179, "ID": 134, "NAAM": "GEERDIJK" }, "geometry": { "type": "Point", "coordinates": [ 6.566847697783106, 52.476228209116499 ] } },
{ "type": "Feature", "properties": { "SVK_ID": 4931, "ID": 135, "NAAM": "GELDERMALSEN" }, "geometry": { "type": "Point", "coordinates": [ 5.271169006219963, 51.8832155659248 ] } },
{ "type": "Feature", "properties": { "SVK_ID": 4894, "ID": 136, "NAAM": "GELDROP" }, "geometry": { "type": "Point", "coordinates": [ 5.550588260694453, 51.420024830522735 ] } },
{ "type": "Feature", "properties": { "SVK_ID": 4845, "ID": 137, "NAAM": "GELEEN-LUTTERADE" }, "geometry": { "type": "Point", "coordinates": [ 5.82524449102182, 50.976003007579479 ] } },
{ "type": "Feature", "properties": { "SVK_ID": 1509, "ID": 138, "NAAM": "GELEEN-OOST" }, "geometry": { "type": "Point", "coordinates": [ 5.843153205345641, 50.967070816183586 ] } },
{ "type": "Feature", "properties": { "SVK_ID": 4323, "ID": 139, "NAAM": "GILZE-RIJEN" }, "geometry": { "type": "Point", "coordinates": [ 4.926074308288529, 51.583713858999516 ] } },
{ "type": "Feature", "properties": { "SVK_ID": 4724, "ID": 140, "NAAM": "GOES" }, "geometry": { "type": "Point", "coordinates": [ 3.890123843576635, 51.498201627367187 ] } },
{ "type": "Feature", "properties": { "SVK_ID": 5138, "ID": 141, "NAAM": "GOOR" }, "geometry": { "type": "Point", "coordinates": [ 6.584756717209777, 52.230277336331412 ] } },
{ "type": "Feature", "properties": { "SVK_ID": 503, "ID": 142, "NAAM": "GORINCHEM" }, "geometry": { "type": "Point", "coordinates": [ 4.968230020283205, 51.834051480619017 ] } },
{ "type": "Feature", "properties": { "SVK_ID": 627, "ID": 143, "NAAM": "GOUDA" }, "geometry": { "type": "Point", "coordinates": [ 4.70589715826485, 52.01740136066816 ] } },
{ "type": "Feature", "properties": { "SVK_ID": 626, "ID": 144, "NAAM": "GOUDA-GOVERWELLE" }, "geometry": { "type": "Point", "coordinates": [ 4.740164718172228, 52.015140853492639 ] } },
{ "type": "Feature", "properties": { "SVK_ID": 5187, "ID": 145, "NAAM": "GRAMSBERGEN" }, "geometry": { "type": "Point", "coordinates": [ 6.676054289475206, 52.609366319617273 ] } },
{ "type": "Feature", "properties": { "SVK_ID": 5242, "ID": 146, "NAAM": "GRIJPSKERK" }, "geometry": { "type": "Point", "coordinates": [ 6.30934216363417, 53.255785868358743 ] } },
{ "type": "Feature", "properties": { "SVK_ID": 4117, "ID": 147, "NAAM": "GRONINGEN" }, "geometry": { "type": "Point", "coordinates": [ 6.565369434282721, 53.210717517026282 ] } },
{ "type": "Feature", "properties": { "SVK_ID": 5240, "ID": 148, "NAAM": "GRONINGEN NOORD" }, "geometry": { "type": "Point", "coordinates": [ 6.556616529160944, 53.230240672708149 ] } },
{ "type": "Feature", "properties": { "SVK_ID": 4099, "ID": 150, "NAAM": "HAARLEM" }, "geometry": { "type": "Point", "coordinates": [ 4.638885531556648, 52.38762207286706 ] } },
{ "type": "Feature", "properties": { "SVK_ID": 5185, "ID": 152, "NAAM": "HARDENBERG" }, "geometry": { "type": "Point", "coordinates": [ 6.628693330544265, 52.572857894043992 ] } },
{ "type": "Feature", "properties": { "SVK_ID": 5052, "ID": 153, "NAAM": "HARDERWIJK" }, "geometry": { "type": "Point", "coordinates": [ 5.619030526232916, 52.337414747491422 ] } },
{ "type": "Feature", "properties": { "SVK_ID": 4119, "ID": 155, "NAAM": "HAREN" }, "geometry": { "type": "Point", "coordinates": [ 6.617570438954649, 53.176089609532298 ] } },
{ "type": "Feature", "properties": { "SVK_ID": 5237, "ID": 155, "NAAM": "HAREN" }, "geometry": { "type": "Point", "coordinates": [ 6.617570438954649, 53.176089609532298 ] } },
{ "type": "Feature", "properties": { "SVK_ID": 913, "ID": 156, "NAAM": "HARLINGEN" }, "geometry": { "type": "Point", "coordinates": [ 5.424996042375406, 53.17040050277356 ] } },
{ "type": "Feature", "properties": { "SVK_ID": 913, "ID": 157, "NAAM": "HARLINGEN HAVEN" }, "geometry": { "type": "Point", "coordinates": [ 5.411330426935103, 53.1745374585186 ] } },
{ "type": "Feature", "properties": { "SVK_ID": 1015, "ID": 158, "NAAM": "HEEMSKERK" }, "geometry": { "type": "Point", "coordinates": [ 4.686967335477141, 52.495301514367156 ] } },
{ "type": "Feature", "properties": { "SVK_ID": 602, "ID": 159, "NAAM": "HEEMSTEDE-AARDENHOUT" }, "geometry": { "type": "Point", "coordinates": [ 4.606797819479191, 52.359552382735323 ] } },
{ "type": "Feature", "properties": { "SVK_ID": 4108, "ID": 162, "NAAM": "HEERHUGOWAARD" }, "geometry": { "type": "Point", "coordinates": [ 4.822653711501705, 52.66984896452383 ] } },
{ "type": "Feature", "properties": { "SVK_ID": 4003, "ID": 163, "NAAM": "HEERLEN" }, "geometry": { "type": "Point", "coordinates": [ 5.974970487240762, 50.89080747584407 ] } },
{ "type": "Feature", "properties": { "SVK_ID": 2, "ID": 164, "NAAM": "HEEZE" }, "geometry": { "type": "Point", "coordinates": [ 5.569669075166792, 51.384967486580159 ] } },
{ "type": "Feature", "properties": { "SVK_ID": 1029, "ID": 165, "NAAM": "HEILOO" }, "geometry": { "type": "Point", "coordinates": [ 4.700458382537191, 52.599329884111263 ] } },
{ "type": "Feature", "properties": { "SVK_ID": 349, "ID": 166, "NAAM": "HEINO" }, "geometry": { "type": "Point", "coordinates": [ 6.221543877519755, 52.427265825645094 ] } },
{ "type": "Feature", "properties": { "SVK_ID": 4898, "ID": 168, "NAAM": "HELMOND BROUWHUIS" }, "geometry": { "type": "Point", "coordinates": [ 5.70334149524537, 51.470299156263678 ] } },
{ "type": "Feature", "properties": { "SVK_ID": 4897, "ID": 169, "NAAM": "HELMOND HET HOUT" }, "geometry": { "type": "Point", "coordinates": [ 5.631728130624708, 51.468134203996378 ] } },
{ "type": "Feature", "properties": { "SVK_ID": 1779, "ID": 170, "NAAM": "HEMMEN-DODEWAARD" }, "geometry": { "type": "Point", "coordinates": [ 5.673359934258778, 51.922319542800722 ] } },
{ "type": "Feature", "properties": { "SVK_ID": 404, "ID": 173, "NAAM": "HILVERSUM" }, "geometry": { "type": "Point", "coordinates": [ 5.182553468607755, 52.225460178179731 ] } },
{ "type": "Feature", "properties": { "SVK_ID": 411, "ID": 174, "NAAM": "HILVERSUM-NOORD" }, "geometry": { "type": "Point", "coordinates": [ 5.174182693398244, 52.237534023154311 ] } },
{ "type": "Feature", "properties": { "SVK_ID": 1512, "ID": 177, "NAAM": "HOENSBROEK" }, "geometry": { "type": "Point", "coordinates": [ 5.93087115529272, 50.90536053778672 ] } },
{ "type": "Feature", "properties": { "SVK_ID": 413, "ID": 178, "NAAM": "HOLLANDSCHE RADING" }, "geometry": { "type": "Point", "coordinates": [ 5.179276793841166, 52.178025414483656 ] } },
{ "type": "Feature", "properties": { "SVK_ID": 348, "ID": 179, "NAAM": "HOLTEN" }, "geometry": { "type": "Point", "coordinates": [ 6.420073871443199, 52.283875609083665 ] } },
{ "type": "Feature", "properties": { "SVK_ID": 5465, "ID": 180, "NAAM": "HOOFDDORP" }, "geometry": { "type": "Point", "coordinates": [ 4.699624734062684, 52.293042111699172 ] } },
{ "type": "Feature", "properties": { "SVK_ID": 5213, "ID": 181, "NAAM": "HOOGEVEEN" }, "geometry": { "type": "Point", "coordinates": [ 6.473943699110445, 52.734320502799335 ] } },
{ "type": "Feature", "properties": { "SVK_ID": 5307, "ID": 182, "NAAM": "HOOGEZAND-SAPPEMEER" }, "geometry": { "type": "Point", "coordinates": [ 6.771963287457386, 53.15971237423765 ] } },
{ "type": "Feature", "properties": { "SVK_ID": 1036, "ID": 183, "NAAM": "HOOGKARSPEL" }, "geometry": { "type": "Point", "coordinates": [ 5.184473417035329, 52.690688003555529 ] } },
{ "type": "Feature", "properties": { "SVK_ID": 4427, "ID": 184, "NAAM": "HOORN" }, "geometry": { "type": "Point", "coordinates": [ 5.055430776053843, 52.645067729761081 ] } },
{ "type": "Feature", "properties": { "SVK_ID": 1021, "ID": 185, "NAAM": "HOORN-KERSENBOOGERD" }, "geometry": { "type": "Point", "coordinates": [ 5.085498410248372, 52.653658540322368 ] } },
{ "type": "Feature", "properties": { "SVK_ID": 9, "ID": 186, "NAAM": "HORST-SEVENUM" }, "geometry": { "type": "Point", "coordinates": [ 6.042728984454063, 51.426242455442711 ] } },
{ "type": "Feature", "properties": { "SVK_ID": 1804, "ID": 187, "NAAM": "HOUTEN" }, "geometry": { "type": "Point", "coordinates": [ 5.16772995261408, 52.034627496607591 ] } },
{ "type": "Feature", "properties": { "SVK_ID": 928, "ID": 189, "NAAM": "IJLST" }, "geometry": { "type": "Point", "coordinates": [ 5.616167462412723, 53.01479392335569 ] } },
{ "type": "Feature", "properties": { "SVK_ID": 418, "ID": 350, "NAAM": "WEESP" }, "geometry": { "type": "Point", "coordinates": [ 5.0442391140008, 52.312089510937057 ] } },
{ "type": "Feature", "properties": { "SVK_ID": 1919, "ID": 351, "NAAM": "WEHL" }, "geometry": { "type": "Point", "coordinates": [ 6.212794459371234, 51.956904223472314 ] } },
{ "type": "Feature", "properties": { "SVK_ID": 724, "ID": 370, "NAAM": "ZOETERMEER" }, "geometry": { "type": "Point", "coordinates": [ 4.476945758441099, 52.0476284084925 ] } },
{ "type": "Feature", "properties": { "SVK_ID": 5569, "ID": 951, "NAAM": "WIJLRE" }, "geometry": { "type": "Point", "coordinates": [ 5.8982113306233, 50.832968257819353 ] } },
{ "type": "Feature", "properties": { "SVK_ID": 4058, "ID": 955, "NAAM": "UTRECHT CENTRAAL" }, "geometry": { "type": "Point", "coordinates": [ 5.110368100398724, 52.089637040496086 ] } },
{ "type": "Feature", "properties": { "SVK_ID": 4430, "ID": 961, "NAAM": "WOGNUM - NIBBIXWOUD" }, "geometry": { "type": "Point", "coordinates": [ 5.033394472789442, 52.68251156737599 ] } },
{ "type": "Feature", "properties": { "SVK_ID": 5069, "ID": 964, "NAAM": "BEEKBERGEN" }, "geometry": { "type": "Point", "coordinates": [ 5.987274983395643, 52.159735747327375 ] } },
{ "type": "Feature", "properties": { "SVK_ID": 737, "ID": 976, "NAAM": "DEN HAAG MOERWIJK" }, "geometry": { "type": "Point", "coordinates": [ 4.30855755184371, 52.053534708704248 ] } },
{ "type": "Feature", "properties": { "SVK_ID": 5326, "ID": 986, "NAAM": "VEENDAM" }, "geometry": { "type": "Point", "coordinates": [ 6.893545317749414, 53.122394753778963 ] } },
{ "type": "Feature", "properties": { "SVK_ID": 5324, "ID": 986, "NAAM": "VEENDAM" }, "geometry": { "type": "Point", "coordinates": [ 6.893545317749414, 53.122394753778963 ] } },
{ "type": "Feature", "properties": { "SVK_ID": 4728, "ID": 987, "NAAM": "STADSKANAAL HOOFDSTATION" }, "geometry": { "type": "Point", "coordinates": [ 6.935300770729163, 52.996357399987147 ] } },
{ "type": "Feature", "properties": { "SVK_ID": 5501, "ID": 998, "NAAM": "DEN HAAG YPENBURG" }, "geometry": { "type": "Point", "coordinates": [ 4.391924285818116, 52.055405680129944 ] } },
{ "type": "Feature", "properties": { "SVK_ID": 4512, "ID": 1006, "NAAM": "APELDOORN OSSEVELD" }, "geometry": { "type": "Point", "coordinates": [ 6.005402122129107, 52.215504180496133 ] } },
{ "type": "Feature", "properties": { "SVK_ID": 5046, "ID": 1016, "NAAM": "AMERSFOORT VATHORST" }, "geometry": { "type": "Point", "coordinates": [ 5.433429891250432, 52.192342407732205 ] } },
{ "type": "Feature", "properties": { "SVK_ID": 517, "ID": 1017, "NAAM": "HARDINXVELD BLAUWE ZOOM" }, "geometry": { "type": "Point", "coordinates": [ 4.815474712072889, 51.829628278015463 ] } },
{ "type": "Feature", "properties": { "SVK_ID": 4093, "ID": 1018, "NAAM": "AMSTERDAM HOLENDRECHT" }, "geometry": { "type": "Point", "coordinates": [ 4.960202658037027, 52.297943400765249 ] } },
{ "type": "Feature", "properties": { "SVK_ID": 4343, "ID": 1031, "NAAM": "MAASTRICHT NOORD" }, "geometry": { "type": "Point", "coordinates": [ 5.71773776407789, 50.87078788890755 ] } },
{ "type": "Feature", "properties": { "SVK_ID": 1143, "ID": 1033, "NAAM": "AMSTERDAM SCIENCE PARK" }, "geometry": { "type": "Point", "coordinates": [ 4.948410655789441, 52.352879882420595 ] } },
{ "type": "Feature", "properties": { "SVK_ID": 5411, "ID": 1034, "NAAM": "AMSTERDAM ARENA" }, "geometry": { "type": "Point", "coordinates": [ 4.941820555725513, 52.316838573319913 ] } },
{ "type": "Feature", "properties": { "SVK_ID": 4538, "ID": 1035, "NAAM": "EMMEN ZUID" }, "geometry": { "type": "Point", "coordinates": [ 6.873837639448152, 52.74837013774539 ] } },
{ "type": "Feature", "properties": { "SVK_ID": 5254, "ID": 1037, "NAAM": "ACHTER DE HOVEN" }, "geometry": { "type": "Point", "coordinates": [ 5.821463473274195, 53.199659361899471 ] } },
{ "type": "Feature", "properties": { "SVK_ID": 412, "ID": 1038, "NAAM": "ALMERE POORT" }, "geometry": { "type": "Point", "coordinates": [ 5.152182248800894, 52.342721427108295 ] } },
{ "type": "Feature", "properties": { "SVK_ID": 517, "ID": 1039, "NAAM": "BOVEN - HARDINXVELD" }, "geometry": { "type": "Point", "coordinates": [ 4.878817909660081, 51.832402044461418 ] } },
{ "type": "Feature", "properties": { "SVK_ID": 1521, "ID": 1041, "NAAM": "HEERLEN WOONBOULEVARD" }, "geometry": { "type": "Point", "coordinates": [ 5.953170274440646, 50.89620989007701 ] } },
{ "type": "Feature", "properties": { "SVK_ID": 5141, "ID": 1042, "NAAM": "HENGELO GEZONDHEIDSPARK" }, "geometry": { "type": "Point", "coordinates": [ 6.767745492628014, 52.261649186058072 ] } },
{ "type": "Feature", "properties": { "SVK_ID": 4995, "ID": 1043, "NAAM": "HOEVELAKEN" }, "geometry": { "type": "Point", "coordinates": [ 5.457672707561376, 52.16644959896054 ] } },
{ "type": "Feature", "properties": { "SVK_ID": 1804, "ID": 1044, "NAAM": "HOUTEN CASTELLUM" }, "geometry": { "type": "Point", "coordinates": [ 5.179536649973815, 52.016789643177489 ] } },
{ "type": "Feature", "properties": { "SVK_ID": 3, "ID": 1045, "NAAM": "MAARHEZE" }, "geometry": { "type": "Point", "coordinates": [ 5.629703737484944, 51.305105123769117 ] } },
{ "type": "Feature", "properties": { "SVK_ID": 1614, "ID": 1046, "NAAM": "MOOK MOLENHOEK" }, "geometry": { "type": "Point", "coordinates": [ 5.879162057849749, 51.766923325752408 ] } },
{ "type": "Feature", "properties": { "SVK_ID": 518, "ID": 1049, "NAAM": "SLIEDRECHT BAANHOEK" }, "geometry": { "type": "Point", "coordinates": [ 4.743299507232809, 51.829607291108886 ] } },
{ "type": "Feature", "properties": { "SVK_ID": 1169, "ID": 1050, "NAAM": "UTRECHT LEIDSCHE RIJN" }, "geometry": { "type": "Point", "coordinates": [ 5.065568118044538, 52.099001178740679 ] } },
{ "type": "Feature", "properties": { "SVK_ID": 1110, "ID": 1054, "NAAM": "HALFWEG - ZWANENBURG" }, "geometry": { "type": "Point", "coordinates": [ 4.746436174916297, 52.386040658759818 ] } },
{ "type": "Feature", "properties": { "SVK_ID": 212, "ID": 199, "NAAM": "KROMMENIE-ASSENDELFT" }, "geometry": { "type": "Point", "coordinates": [ 4.755479135817642, 52.494913400213143 ] } },
{ "type": "Feature", "properties": { "SVK_ID": 5943, "ID": 239, "NAAM": "NIJVERDAL" }, "geometry": { "type": "Point", "coordinates": [ 6.462910770177673, 52.366366565913772 ] } }
]
}
